ID,janvier 2013,février 2013,mars 2013,avril 2013,mai 2013,juin 2013,juillet 2013,août 2013,septembre 2013,octobre 2013,novembre 2013,décembre 2013,janvier 2014,février 2014,mars 2014,avril 2014,mai 2014,juin 2014,juillet 2014,août 2014,septembre 2014,octobre 2014,novembre 2014,décembre 2014,janvier 2015,février 2015,mars 2015,avril 2015,mai 2015,juin 2015,juillet 2015,août 2015,septembre 2015,octobre 2015,novembre 2015,décembre 2015,janvier 2016,février 2016,mars 2016,avril 2016,mai 2016,juin 2016,juillet 2016,août 2016,septembre 2016,octobre 2016,novembre 2016,décembre 2016,janvier 2017,février 2017,mars 2017,avril 2017,mai 2017,juin 2017,juillet 2017,août 2017,septembre 2017,octobre 2017,novembre 2017,décembre 2017,janvier 2018,février 2018,mars 2018,avril 2018,mai 2018,juin 2018,juillet 2018,août 2018,septembre 2018,octobre 2018,novembre 2018,décembre 2018,janvier 2019,février 2019,mars 2019,avril 2019,mai 2019,juin 2019,juillet 2019,août 2019,septembre 2019,octobre 2019,novembre 2019,décembre 2019,janvier 2020,février 2020,mars 2020,avril 2020,mai 2020,juin 2020,juillet 2020,août 2020,septembre 2020,octobre 2020,novembre 2020,décembre 2020,janvier 2021,février 2021,mars 2021,avril 2021,mai 2021,juin 2021,juillet 2021,août 2021,septembre 2021,octobre 2021,novembre 2021,décembre 2021,janvier 2022,février 2022,mars 2022,avril 2022,mai 2022,juin 2022,juillet 2022,août 2022,septembre 2022,octobre 2022,novembre 2022,décembre 2022,Latitude,Longitude,Nom
100003034,7661.0,8062.0,19456.0,73082.0,147274.0,145775.0,168218.0,159005.0,138406.0,107296.0,46932.0,9231.0,8613.0,9886.0,11423.0,55310.0,136918.0,165926.0,152729.0,142241.0,149118.0,80975.0,40031.0,11104.0,5052.0,5009.0,13340.0,65704.0,145217.0,134844.0,152424.0,142849.0,141147.0,93835.0,63847.0,29520.0,9797.0,10204.0,21402.0,66178.0,143116.0,161465.0,160446.0,146520.0,49664.0,,26174.0,15823.0,13298.0,14696.0,18228.0,67683.0,123117.0,155540.0,163549.0,163338.0,149426.0,113107.0,48500.0,16952.0,10903.0,13909.0,25383.0,54631.0,162538.0,167397.0,154815.0,160122.0,143300.0,86184.0,36681.0,16186.0,,,,,,,,,,,,,,,,,,,,,,,,,,,,,,,,,,,,,,,,,,,,,,,,,45.53044782912952,-73.56954036492331,Rachel - Papineau
100003032,6262.0,6352.0,14967.0,62784.0,132359.0,126983.0,153288.0,142058.0,128662.0,102010.0,41926.0,7345.0,6216.0,6668.0,8464.0,45507.0,117592.0,143901.0,143088.0,130979.0,131047.0,84137.0,39300.0,9260.0,4787.0,4879.0,10947.0,57449.0,145475.0,142070.0,155782.0,139217.0,144408.0,89429.0,57044.0,24119.0,8503.0,8432.0,17294.0,62759.0,136001.0,145972.0,156673.0,146558.0,145296.0,96285.0,52637.0,12185.0,10072.0,10669.0,12788.0,53651.0,108808.0,130536.0,148493.0,141803.0,141808.0,107566.0,44100.0,14205.0,7992.0,9651.0,18072.0,52577.0,158703.0,161620.0,155416.0,146299.0,129766.0,73237.0,24379.0,10374.0,,,,,,,,,,,,,,,,,,,,,,,,,,,,,,,,,,,,,,,,,,,,,,,,,45.516216,-73.56297,Berri
100001753,,,,,,,,,,8057.0,10054.0,933.0,476.0,443.0,386.0,11637.0,43560.0,61429.0,64864.0,59949.0,49658.0,27902.0,11155.0,1437.0,349.0,199.0,644.0,19428.0,55924.0,58160.0,68700.0,60883.0,55954.0,30501.0,18780.0,7114.0,498.0,673.0,3343.0,22121.0,55859.0,59490.0,65587.0,63311.0,58368.0,31911.0,16694.0,2622.0,1153.0,1443.0,1953.0,19407.0,42722.0,52453.0,57775.0,57020.0,51161.0,36014.0,28850.0,4112.0,126.0,,3754.0,15194.0,57984.0,59797.0,61715.0,53969.0,40901.0,21799.0,7296.0,2678.0,,,,,,,,,,,,,,,,,,,,,,,,,,,,,,,,,,,,,,,,,,,,,,,,,45.530216,-73.544426,Notre-Dame
100011747,,,,,,,,,,1323.0,4817.0,,,,,,13005.0,16350.0,18354.0,16551.0,15567.0,10138.0,4544.0,1233.0,707.0,504.0,1203.0,33.0,2188.0,4371.0,13852.0,15166.0,15007.0,9610.0,5905.0,2655.0,1084.0,1296.0,1839.0,6955.0,16256.0,18441.0,19823.0,17687.0,17765.0,10596.0,6031.0,1545.0,1193.0,1035.0,1173.0,5630.0,13189.0,14151.0,16797.0,18068.0,15908.0,12790.0,5330.0,1686.0,978.0,1055.0,1544.0,4447.0,17420.0,17237.0,18377.0,19113.0,15226.0,9362.0,3744.0,1478.0,,,,,,,,,,,,,,,,,,,,,,,,,,,,,,,,,,,,,,,,,,,,,,,,,45.50625,-73.557785,Saint-Antoine
100017523,,,,,,,,,,,,,,,,,,,,,,,6562.0,3390.0,118.0,458.0,5617.0,32756.0,76336.0,62217.0,71652.0,65551.0,67166.0,42934.0,29773.0,12603.0,2555.0,2573.0,8916.0,29079.0,52932.0,56848.0,52653.0,51068.0,55635.0,39899.0,22592.0,3408.0,2795.0,2926.0,5686.0,24203.0,34688.0,55268.0,51034.0,55050.0,66578.0,48261.0,19043.0,5552.0,1940.0,3029.0,8536.0,18939.0,47099.0,62071.0,68066.0,69287.0,63115.0,47010.0,15413.0,4643.0,,,,,,,,,,,,,,,,,,,,,,,,,,,,,,,,,,,,,,,,,,,,,,,,,45.5193951037592,-73.5886631073951,Saint-Urbain
100002880,,,,,,,,,,,,,,,,,,,,,,,,,,,,,,,,,,,,,,,,,,,,,,,,,70.0,199.0,311.0,23786.0,34007.0,,,72404.0,71993.0,48806.0,16549.0,3420.0,614.0,338.0,1391.0,22623.0,76553.0,80897.0,81737.0,79383.0,65695.0,35509.0,8923.0,811.0,,,,,,,,,,,,,,,,,,,,,,,,,,,,,,,,,,,,,,,,,,,,,,,,,45.5255082563413,-73.5544220271119,Pont Jacques-Cartier
100025474,,,,,,,,,,,,,,,,,,,,,,,,,,,,,,,,,,,,,,,,,,,,,,,,,18245.0,17342.0,23522.0,90187.0,162053.0,208070.0,225113.0,224125.0,230896.0,189418.0,72192.0,22745.0,11997.0,15362.0,29865.0,72510.0,194937.0,213497.0,205471.0,207027.0,187734.0,128440.0,56775.0,18227.0,,,,,,,,,,,,,,,,,,,,,,,,,,,,,,,,,,,,,,,,,,,,,,,,,45.5278195427535,-73.6031121673584,Saint-Laurent-Bellechasse
100041114,,,,,,,,,,,,,,,,,,,,,,,,,,,,,,,,,,,,,,,,,,,,,,,,,,,,,,,,,,,,,,,,,5379.0,44533.0,42695.0,39275.0,27208.0,7849.0,1385.0,193.0,,,,,,,,,,,,,,,,,,,,,,,,,,,,,,,,,,,,,,,,,,,,,,,,,45.55759296561201,-73.67322198070093,Eco-Display Parc Stanley
100041101,,,,,,,,,,,,,,,,,,,,,,,,,,,,,,,,,,,,,,,,,,,,,,,,,,,,,,,,,,,,,9.0,29.0,146.0,595.0,1619.0,1932.0,1892.0,1800.0,1660.0,772.0,194.0,87.0,,,,,,,,,,,,,,,,,,,,,,,,,,,,,,,,,,,,,,,,,,,,,,,,,45.54168,-73.68448,Edmond Valade
100034805,,,,,,,,,,,,,,,,,,,,,,,,,,,,,,,,,,,,,,,,,,,,,,,,,,,,,,,,,,,,,101.0,783.0,2524.0,4905.0,17159.0,15638.0,16401.0,15603.0,12933.0,6671.0,2575.0,1125.0,,,,,,,,,,,,,,,,,,,,,,,,,,,,,,,,,,,,,,,,,,,,,,,,,45.557660786928885,-73.67342519533321,Gouin - Lajeunesse
100054073,,,,,,,,,,,,,,,,,,,,,,,,,,,,,,,,,,,,,,,,,,,,,,,,,,,,,,,,,,,,,,,,,,,,,,,,,,,,,,,,,,3765.0,1132.0,527.0,425.0,389.0,949.0,2523.0,5682.0,7977.0,8699.0,8004.0,7822.0,5542.0,3701.0,1321.0,643.0,535.0,1938.0,5122.0,8651.0,9812.0,9394.0,9976.0,10824.0,7645.0,4250.0,1060.0,421.0,491.0,1577.0,4318.0,578.0,11376.0,11370.0,11241.0,10956.0,8500.0,4984.0,2082.0,45.56071317115146,-73.59063628650485,16e Avenue - Bélanger
100052606,,,,,,,,,,,,,,,,,,,,,,,,,,,,,,,,,,,,,,,,,,,,,,,,,,,,,,,,,,,,,,,,,,,,,,,,,,,,,,,,10437.0,11764.0,8103.0,2541.0,1308.0,1020.0,647.0,2433.0,6490.0,14325.0,17428.0,17424.0,14333.0,12146.0,8141.0,5101.0,1755.0,1137.0,1035.0,3214.0,8512.0,13445.0,13969.0,13332.0,12148.0,11226.0,7820.0,4016.0,1065.0,696.0,677.0,1559.0,5093.0,9082.0,11931.0,12690.0,11620.0,9939.0,7851.0,4166.0,1007.0,45.55508439136479,-73.53881875080648,Bennett
100003032,,,,,,,,,,,,,,,,,,,,,,,,,,,,,,,,,,,,,,,,,,,,,,,,,,,,,,,,,,,,,,,,,,,,,,,,,8812.0,7685.0,13142.0,46327.0,110058.0,125983.0,160696.0,69968.0,57572.0,41925.0,13749.0,12179.0,12158.0,10581.0,14891.0,27969.0,24777.0,66061.0,64279.0,58793.0,53747.0,41216.0,35088.0,12458.0,7488.0,6745.0,21263.0,64740.0,109391.0,113205.0,126851.0,126836.0,134109.0,92117.0,50163.0,12946.0,5897.0,7474.0,16396.0,56211.0,112990.0,158311.0,172938.0,166378.0,146257.0,109794.0,57247.0,16820.0,45.516216,-73.56297,Berri
100053057,,,,,,,,,,,,,,,,,,,,,,,,,,,,,,,,,,,,,,,,,,,,,,,,,,,,,,,,,,,,,,,,,,,,,,,,,,,,,,,,7181.0,4762.0,2206.0,302.0,142.0,70.0,108.0,1322.0,5730.0,6851.0,,,,,,,,,,,,,,,,,,,,,,,,,,,,,,,,45.44692242889087,-73.7827912507652,Bord-du-Lac vers est
100053058,,,,,,,,,,,,,,,,,,,,,,,,,,,,,,,,,,,,,,,,,,,,,,,,,,,,,,,,,,,,,,,,,,,,,,,,,,,,,,,,7195.0,4845.0,1864.0,210.0,139.0,58.0,113.0,1329.0,5481.0,6283.0,,,,,,,,,,,,,,,,,,,,,,,,,,,,,,,,45.44699362538782,-73.78264165424379,Bord-du-Lac vers ouest
100012218,,,,,,,,,,,,,,,,,,,,,,,,,,,,,,,,,,,,,,,,,,,,,,,,,,,,,,,,,,,,,,,,,,,,,,,,,5687.0,4953.0,9351.0,37014.0,94463.0,113781.0,234008.0,114278.0,93294.0,62926.0,18934.0,8576.0,8163.0,7091.0,14065.0,35141.0,71023.0,,37814.0,43877.0,43806.0,34975.0,28495.0,7660.0,4220.0,3847.0,12876.0,43244.0,8927.0,56988.0,61890.0,60325.0,27261.0,10818.0,20869.0,5830.0,1921.0,,,,11474.0,65697.0,65954.0,59935.0,53539.0,43366.0,21878.0,6585.0,45.53365,-73.59459,Boyer - Rosemont
100035408,,,,,,,,,,,,,,,,,,,,,,,,,,,,,,,,,,,,,,,,,,,,,,,,,,,,,,,,,,,,,,,,,,,,,,,,,3427.0,3307.0,7065.0,26680.0,62960.0,75143.0,158534.0,72586.0,57591.0,42104.0,12987.0,6325.0,6500.0,5851.0,11796.0,28133.0,60784.0,47946.0,44995.0,40873.0,23907.0,29857.0,25805.0,7772.0,4836.0,166.0,7235.0,32831.0,60194.0,60528.0,55574.0,52374.0,33588.0,19321.0,22705.0,5305.0,3313.0,3688.0,7408.0,22008.0,41215.0,51727.0,51868.0,46925.0,43202.0,35185.0,18385.0,5898.0,45.54346079168719,-73.61668336519156,Boyer - Everett
100004575,,,,,,,,,,,,,,,,,,,,,,,,,,,,,,,,,,,,,,,,,,,,,,,,,,,,,,,,,,,,,,,,,,,,,,,,,345.0,305.0,228.0,,,,,,,,31.0,54.0,4.0,6.0,5.0,21372.0,50581.0,60336.0,63346.0,70134.0,59740.0,38050.0,18085.0,187.0,,,,,,,,,57378.0,40911.0,15267.0,16.0,,19.0,30.0,19984.0,41373.0,51140.0,55937.0,55110.0,49688.0,41694.0,16988.0,64.0,45.527496,-73.57432,Brébeuf - Rachel
100035409,,,,,,,,,,,,,,,,,,,,,,,,,,,,,,,,,,,,,,,,,,,,,,,,,,,,,,,,,,,,,,,,,,,,,,,,,837.0,138.0,156.0,10160.0,33765.0,39709.0,79212.0,37958.0,32883.0,20793.0,4730.0,2276.0,1455.0,1149.0,4476.0,21273.0,47360.0,33225.0,33999.0,29817.0,26203.0,10803.0,14548.0,2946.0,1176.0,1100.0,7079.0,27018.0,41803.0,38650.0,35617.0,31806.0,31427.0,19831.0,9897.0,1995.0,925.0,1105.0,2382.0,12276.0,25548.0,31579.0,33553.0,28867.0,26714.0,20833.0,10007.0,2603.0,45.55773,-73.64662,Christophe-Colomb-Louvain
100003041,,,,,,,,,,,,,,,,,,,,,,,,,,,,,,,,,,,,,,,,,,,,,,,,,,,,,,,,,,,,,,,,,,,,,,,,,3074.0,2668.0,6747.0,24523.0,54107.0,60708.0,127758.0,61133.0,70859.0,48629.0,8926.0,,7409.0,6156.0,9269.0,20623.0,46304.0,58448.0,65466.0,61508.0,60265.0,38010.0,26160.0,7860.0,5346.0,4818.0,13971.0,34638.0,59137.0,63212.0,57215.0,63038.0,84662.0,58545.0,33222.0,8064.0,3964.0,6148.0,11741.0,29012.0,53017.0,63453.0,58327.0,60735.0,63037.0,43719.0,21964.0,7009.0,45.5149,-73.607506,Côte Sainte-Catherine - Stuart
100007390,,,,,,,,,,,,,,,,,,,,,,,,,,,,,,,,,,,,,,,,,,,,,,,,,,,,,,,,,,,,,,,,,,,,,,,,,11966.0,10749.0,17710.0,50491.0,111025.0,130965.0,314724.0,148351.0,89739.0,112621.0,52287.0,31336.0,25831.0,23325.0,26252.0,33620.0,81043.0,116107.0,130609.0,125422.0,113796.0,65940.0,46266.0,14722.0,6628.0,4918.0,21149.0,53318.0,89960.0,95017.0,78636.0,76328.0,92926.0,73896.0,62307.0,25828.0,5187.0,5602.0,18955.0,44992.0,70266.0,90619.0,92369.0,89968.0,85841.0,75260.0,42115.0,14104.0,45.5277722028042,-73.5888323717438,Eco-Display - Métro Laurier
100041114,,,,,,,,,,,,,,,,,,,,,,,,,,,,,,,,,,,,,,,,,,,,,,,,,,,,,,,,,,,,,,,,,,,,,,,,,15.0,,6.0,8051.0,25399.0,35216.0,70206.0,31361.0,21237.0,10883.0,1455.0,479.0,138.0,61.0,4072.0,26770.0,60025.0,62543.0,62392.0,49813.0,38481.0,29506.0,17181.0,1490.0,,,,,51919.0,54307.0,53483.0,44637.0,37646.0,21669.0,8434.0,1060.0,407.0,183.0,545.0,16806.0,36439.0,46844.0,54842.0,47038.0,36079.0,27431.0,10270.0,1543.0,45.55759296561201,-73.67322198070093,Eco-Display Parc Stanley
100041101,,,,,,,,,,,,,,,,,,,,,,,,,,,,,,,,,,,,,,,,,,,,,,,,,,,,,,,,,,,,,,,,,,,,,,,,,63.0,32.0,89.0,617.0,1808.0,2034.0,4862.0,2357.0,2060.0,1365.0,355.0,120.0,62.0,111.0,613.0,1960.0,3745.0,3784.0,1959.0,,,621.0,1442.0,360.0,147.0,121.0,1196.0,3157.0,4070.0,4396.0,4663.0,4111.0,4271.0,2776.0,1439.0,348.0,154.0,183.0,424.0,1639.0,2581.0,3417.0,3606.0,385.0,,,,,45.54168,-73.68448,Edmond Valade
100052604,,,,,,,,,,,,,,,,,,,,,,,,,,,,,,,,,,,,,,,,,,,,,,,,,,,,,,,,,,,,,,,,,,,,,,,,,,,,,,,,20750.0,17671.0,8340.0,877.0,268.0,122.0,24.0,2188.0,1954.0,31953.0,40501.0,41815.0,38446.0,27109.0,19524.0,11742.0,668.0,64.0,5.0,1507.0,20776.0,37612.0,34417.0,36773.0,31278.0,26306.0,13649.0,3858.0,250.0,32.0,9.0,165.0,8273.0,21692.0,28783.0,34236.0,26811.0,20623.0,14834.0,4890.0,182.0,45.466750971228336,-73.53382546846566,Estacade
100034805,,,,,,,,,,,,,,,,,,,,,,,,,,,,,,,,,,,,,,,,,,,,,,,,,,,,,,,,,,,,,,,,,,,,,,,,,638.0,119.0,689.0,5801.0,12213.0,14780.0,36562.0,16265.0,12455.0,1105.0,,,118.0,,,,,,,,1645.0,8217.0,5814.0,,31.0,1244.0,6145.0,16377.0,2951.0,20418.0,14112.0,,,,,,,,,,,,,,,,,,45.557660786928885,-73.67342519533321,Gouin - Lajeunesse
100057500,,,,,,,,,,,,,,,,,,,,,,,,,,,,,,,,,,,,,,,,,,,,,,,,,,,,,,,,,,,,,,,,,,,,,,,,,,,,,,,,,,,563.0,6283.0,8052.0,8030.0,7969.0,13053.0,26115.0,54238.0,67396.0,62145.0,51239.0,29288.0,17408.0,6100.0,4685.0,3941.0,10167.0,26604.0,22525.0,3.0,23.0,1092.0,45020.0,49323.0,28334.0,6630.0,3315.0,4606.0,9641.0,34090.0,66333.0,33546.0,,,,,,,45.51492450009753,-73.5613794582211,Maisonneuve - Berri
100056188,,,,,,,,,,,,,,,,,,,,,,,,,,,,,,,,,,,,,,,,,,,,,,,,,,,,,,,,,,,,,,,,,,,,,,,,,,,,,,,,,,,8288.0,8130.0,7202.0,6725.0,9260.0,15328.0,38777.0,55741.0,59138.0,62712.0,40474.0,18849.0,4023.0,1654.0,3302.0,3207.0,9155.0,16797.0,59.0,21.0,6.0,6.0,14.0,9.0,259.0,,,,,,,,,,,,,,45.52133353005951,-73.55549917938745,Maisonneuve - Plessis
100057053,,,,,,,,,,,,,,,,,,,,,,,,,,,,,,,,,,,,,,,,,,,,,,,,,,,,,,,,,,,,,,,,,,,,,,,,,,,,,,,,,,,,,,,,7771.0,45570.0,60395.0,53695.0,41064.0,55151.0,23088.0,28091.0,12755.0,10286.0,7235.0,19062.0,34742.0,49423.0,49265.0,49895.0,46598.0,41771.0,30908.0,13377.0,2070.0,1507.0,2770.0,7254.0,18700.0,33846.0,47008.0,51461.0,35758.0,,,16214.0,2386.0,45.47370620324923,-73.60486181895988,Maisonneuve - Vendôme
100003039,,,,,,,,,,,,,,,,,,,,,,,,,,,,,,,,,,,,,,,,,,,,,,,,,,,,,,,,,,,,,,,,,,,,,,,,,10408.0,9167.0,16920.0,55297.0,128544.0,138816.0,337124.0,152407.0,155098.0,36357.0,,,,5019.0,15111.0,20858.0,57422.0,87979.0,103715.0,101435.0,88679.0,54212.0,34865.0,11041.0,6442.0,5451.0,17803.0,44220.0,84028.0,99298.0,103777.0,104968.0,99030.0,89847.0,47683.0,6197.0,4915.0,6653.0,16083.0,52150.0,105757.0,137747.0,149272.0,140444.0,139892.0,110175.0,56512.0,15023.0,45.500507,-73.57497,Maisonneuve - Peel
100011783,,,,,,,,,,,,,,,,,,,,,,,,,,,,,,,,,,,,,,,,,,,,,,,,,,,,,,,,,,,,,,,,,,,,,,,,,2559.0,2149.0,5207.0,2771.0,6841.0,52269.0,117900.0,56387.0,53396.0,37011.0,10957.0,4897.0,4306.0,3813.0,8894.0,19268.0,28820.0,54640.0,56393.0,49430.0,44507.0,28463.0,18016.0,5478.0,2912.0,2515.0,7546.0,21381.0,45947.0,47986.0,47622.0,44564.0,47709.0,33170.0,18136.0,4254.0,1925.0,2450.0,6406.0,19107.0,35148.0,46605.0,48900.0,47272.0,44943.0,35679.0,18819.0,5545.0,45.470493,-73.609566,Maisonneuve - Marcil
100057050,,,,,,,,,,,,,,,,,,,,,,,,,,,,,,,,,,,,,,,,,,,,,,,,,,,,,,,,,,,,,,,,,,,,,,,,,,,,,,,,,,1121.0,160.0,,30.0,24.0,838.0,3474.0,7078.0,424.0,,858.0,2279.0,864.0,277.0,164.0,103.0,120.0,90.0,1237.0,2603.0,1521.0,3952.0,3531.0,1623.0,1561.0,505.0,83.0,30.0,67.0,310.0,1110.0,2092.0,2873.0,3508.0,2914.0,2184.0,1401.0,488.0,,45.65913034697104,-73.54248335311773,Maurice-Duplessis
100052605,,,,,,,,,,,,,,,,,,,,,,,,,,,,,,,,,,,,,,,,,,,,,,,,,,,,,,,,,,,,,,,,,,,,,,,,,,,,,,,,13531.0,10872.0,5527.0,972.0,597.0,351.0,261.0,2889.0,13656.0,28974.0,25867.0,23186.0,10371.0,,,712.0,987.0,787.0,538.0,3315.0,12914.0,20689.0,19649.0,7503.0,3981.0,6546.0,5824.0,3039.0,669.0,322.0,290.0,753.0,5513.0,12209.0,17402.0,21356.0,16921.0,12266.0,8723.0,3693.0,839.0,45.5919291608105,-73.51000706512123,Notre-Dame Est - Bellerive
100001753,,,,,,,,,,,,,,,,,,,,,,,,,,,,,,,,,,,,,,,,,,,,,,,,,,,,,,,,,,,,,,,,,,,,,,,,,1238.0,,,9650.0,35969.0,44043.0,107610.0,47298.0,36099.0,22624.0,5666.0,2649.0,1986.0,1236.0,3275.0,14753.0,34663.0,39923.0,38244.0,32915.0,13643.0,,6810.0,25013.0,21866.0,20518.0,22416.0,14211.0,34163.0,40307.0,40051.0,37949.0,35873.0,23140.0,11087.0,2824.0,1363.0,1303.0,2468.0,9076.0,28205.0,35860.0,44280.0,37286.0,31960.0,24402.0,12398.0,3366.0,45.530216,-73.544426,Notre-Dame
100003042,,,,,,,,,,,,,,,,,,,,,,,,,,,,,,,,,,,,,,,,,,,,,,,,,,,,,,,,,,,,,,,,,,,,,,,,,5055.0,3051.0,5823.0,98.0,,13208.0,127972.0,93496.0,97382.0,72524.0,22972.0,9753.0,9363.0,7771.0,10595.0,15433.0,35332.0,46581.0,49166.0,47622.0,47737.0,27838.0,21151.0,6194.0,3103.0,2605.0,11509.0,29412.0,49457.0,52232.0,50247.0,53205.0,70669.0,55335.0,31894.0,6330.0,2400.0,3922.0,9223.0,29611.0,56348.0,74231.0,77018.0,82211.0,95906.0,80070.0,44739.0,10679.0,45.51385,-73.58151,Parc - Duluth
38,,,,,,,,,,,,,,,,,,,,,,,,,,,,,,,,,,,,,,,,,,,,,,,,,,,,,,,,,,,,,,,,,,,,,,,,,314.0,183.0,600.0,13645.0,38634.0,46923.0,149622.0,,42477.0,22247.0,2833.0,746.0,,,,,,,,,,,,,,,,,,,,,,,,,,,,,,,,,,,,,45.5137,-73.58221,Parc U-Zelt Test
100003040,,,,,,,,,,,,,,,,,,,,,,,,,,,,,,,,,,,,,,,,,,,,,,,,,,,,,,,,,,,,,,,,,,,,,,,,,,,,,,,,65386.0,75063.0,51769.0,7315.0,3252.0,469.0,365.0,3788.0,13764.0,32920.0,60980.0,58748.0,58452.0,40289.0,26896.0,14618.0,1546.0,867.0,558.0,6116.0,36792.0,62588.0,56748.0,59465.0,54531.0,46074.0,24287.0,7681.0,887.0,297.0,344.0,1784.0,17246.0,42659.0,46165.0,74158.0,58132.0,36954.0,15073.0,4742.0,512.0,45.50127,-73.54441,Pierre-Dupuy
100052603,,,,,,,,,,,,,,,,,,,,,,,,,,,,,,,,,,,,,,,,,,,,,,,,,,,,,,,,,,,,,,,,,,,,,,,,,,,,,,,,60147.0,10456.0,5768.0,1151.0,463.0,216.0,10.0,2359.0,28960.0,64658.0,76220.0,75176.0,68160.0,65529.0,40256.0,27423.0,7210.0,442.0,15.0,3553.0,42363.0,73668.0,73189.0,69809.0,67574.0,70390.0,34965.0,24326.0,2070.0,385.0,79.0,476.0,23181.0,51151.0,58586.0,64031.0,61207.0,57519.0,48431.0,22427.0,4994.0,45.53416012524185,-73.59146414618658,Piste Des Carrières
100052601,,,,,,,,,,,,,,,,,,,,,,,,,,,,,,,,,,,,,,,,,,,,,,,,,,,,,,,,,,,,,,,,,,,,,,,,,37.0,,176.0,19869.0,56881.0,77915.0,193514.0,11995.0,67081.0,44627.0,10202.0,3718.0,297.0,184.0,1742.0,8659.0,22435.0,23482.0,24763.0,20043.0,13556.0,8945.0,5183.0,703.0,248.0,195.0,3289.0,11707.0,19438.0,19385.0,20516.0,18182.0,15302.0,8725.0,2995.0,479.0,217.0,248.0,1080.0,5854.0,5696.0,,,,,,,,45.486221523199305,-73.86606423555334,Pont Ile Bizard
100002880,,,,,,,,,,,,,,,,,,,,,,,,,,,,,,,,,,,,,,,,,,,,,,,,,,,,,,,,,,,,,,,,,,,,,,,,,23.0,,45.0,18456.0,55153.0,71610.0,169054.0,92511.0,59631.0,36970.0,7765.0,2472.0,1665.0,1360.0,10609.0,27743.0,68023.0,90437.0,88957.0,84340.0,60360.0,45205.0,27427.0,7540.0,6486.0,6146.0,14270.0,54315.0,84851.0,80309.0,79501.0,75671.0,68765.0,45099.0,20866.0,6753.0,4667.0,4603.0,9921.0,32362.0,60482.0,76633.0,93937.0,83785.0,69560.0,53896.0,26070.0,8663.0,45.5255082563413,-73.5544220271119,Pont Jacques-Cartier
100052602,,,,,,,,,,,,,,,,,,,,,,,,,,,,,,,,,,,,,,,,,,,,,,,,,,,,,,,,,,,,,,,,,,,,,,,,,,,,,,,,7958.0,6891.0,3520.0,447.0,112.0,356.0,345.0,1497.0,5539.0,14366.0,14545.0,14807.0,13319.0,8858.0,5539.0,3565.0,566.0,300.0,206.0,1881.0,6938.0,12153.0,12688.0,13657.0,11686.0,9454.0,4921.0,1518.0,304.0,136.0,188.0,594.0,3025.0,8256.0,11734.0,14531.0,11919.0,8408.0,6097.0,2256.0,332.0,45.70089562398661,-73.4832523129735,Pont Le Gardeur
100057051,,,,,,,,,,,,,,,,,,,,,,,,,,,,,,,,,,,,,,,,,,,,,,,,,,,,,,,,,,,,,,,,,,,,,,,,,,,,,,,,,,,,,197.0,135.0,418.0,993.0,2802.0,,,,,,,,,,,,,,,,,,,,,,,,,,,,,,,,45.53016420946323,-73.62942808518474,Querbes - St-Roch
100012217,,,,,,,,,,,,,,,,,,,,,,,,,,,,,,,,,,,,,,,,,,,,,,,,,,,,,,,,,,,,,,,,,,,,,,,,,2718.0,,5974.0,39628.0,96216.0,108629.0,220616.0,95016.0,97181.0,65136.0,20595.0,6891.0,8869.0,7949.0,16267.0,34557.0,82328.0,101200.0,102434.0,88229.0,97121.0,67807.0,40127.0,12140.0,7735.0,6666.0,22242.0,60907.0,98076.0,95770.0,93748.0,93773.0,104069.0,78966.0,41334.0,10096.0,5132.0,5550.0,13605.0,46032.0,83555.0,28441.0,,,,,,12278.0,45.51962,-73.58025,Rachel - HôteldeVille
100003034,,,,,,,,,,,,,,,,,,,,,,,,,,,,,,,,,,,,,,,,,,,,,,,,,,,,,,,,,,,,,,,,,,,,,,,,,12200.0,11431.0,19393.0,61149.0,133862.0,8180.0,14.0,20.0,25.0,41.0,2359.0,6708.0,12866.0,14900.0,23402.0,43225.0,111937.0,154224.0,176475.0,158415.0,141703.0,89317.0,59179.0,20778.0,14759.0,14163.0,36900.0,85683.0,141748.0,143818.0,139651.0,135053.0,145935.0,108922.0,59380.0,17633.0,10090.0,11669.0,22997.0,64002.0,112821.0,148340.0,151195.0,139943.0,132320.0,107979.0,58176.0,19013.0,45.53044782912952,-73.56954036492331,Rachel - Papineau
100052600,,,,,,,,,,,,,,,,,,,,,,,,,,,,,,,,,,,,,,,,,,,,,,,,,,,,,,,,,,,,,,,,,,,,,,,,,,,,,,,,59401.0,69018.0,46433.0,13945.0,7091.0,6323.0,5442.0,12221.0,31210.0,67285.0,51493.0,52231.0,66039.0,73130.0,52981.0,34369.0,11558.0,7730.0,6351.0,20638.0,54753.0,95297.0,91562.0,86889.0,83198.0,85604.0,58498.0,30455.0,8495.0,4887.0,4940.0,10798.0,36249.0,68520.0,86202.0,87792.0,85487.0,75669.0,58955.0,31274.0,8887.0,45.543276810912914,-73.56190718304119,Rachel 3 (Angus)
100055268,,,,,,,,,,,,,,,,,,,,,,,,,,,,,,,,,,,,,,,,,,,,,,,,,,,,,,,,,,,,,,,,,,,,,,,,,,,,,,,,,,,,,,,8509.0,30772.0,67581.0,74517.0,73936.0,62730.0,50816.0,29499.0,22039.0,6391.0,3982.0,3032.0,11785.0,45680.0,63714.0,65151.0,62580.0,58572.0,54666.0,38310.0,18157.0,4000.0,2104.0,2075.0,4800.0,23091.0,45906.0,59248.0,61411.0,56995.0,46104.0,,907.0,472.0,45.553646534540135,-73.5557600288962,Rachel - Pie IX
100011748,,,,,,,,,,,,,,,,,,,,,,,,,,,,,,,,,,,,,,,,,,,,,,,,,,,,,,,,,,,,,,,,,,,,,,,,,1090.0,,,,7950.0,20883.0,36506.0,64831.0,51639.0,58800.0,15695.0,7020.0,6366.0,4652.0,2320.0,,17301.0,44306.0,44055.0,41073.0,39645.0,28124.0,16092.0,5814.0,3073.0,2452.0,13193.0,35062.0,52283.0,52780.0,53632.0,50806.0,51543.0,37874.0,17599.0,4940.0,1818.0,1846.0,4245.0,20994.0,1528.0,441.0,,,,,,4658.0,45.516968,-73.55404,René-Lévesque - Wolfe
100011747,,,,,,,,,,,,,,,,,,,,,,,,,,,,,,,,,,,,,,,,,,,,,,,,,,,,,,,,,,,,,,,,,,,,,,,,,1140.0,1160.0,1586.0,4998.0,14039.0,15837.0,37450.0,16793.0,14224.0,9678.0,2847.0,1478.0,846.0,96.0,85.0,,,,,,,,,,,,,,,,,,,,,,,,,,23.0,,,,,,,,45.50625,-73.557785,Saint-Antoine
39,,,,,,,,,,,,,,,,,,,,,,,,,,,,,,,,,,,,,,,,,,,,,,,,,,,,,,,,,,,,,,,,,,,,,,,,,13872.0,11225.0,22359.0,75163.0,163788.0,197001.0,490390.0,,207467.0,130283.0,47331.0,22906.0,,,,,,,,,,,,,,,,,,,,,,,,,,,,,,,,,,,,,45.52782,-73.60311,Saint-Laurent U-Zelt Test
100025474,,,,,,,,,,,,,,,,,,,,,,,,,,,,,,,,,,,,,,,,,,,,,,,,,,,,,,,,,,,,,,,,,,,,,,,,,1850.0,3020.0,7622.0,23438.0,57873.0,62163.0,221996.0,262529.0,45367.0,36101.0,12275.0,5213.0,18605.0,16926.0,26891.0,51608.0,124017.0,165554.0,181774.0,174654.0,172878.0,115180.0,69284.0,22442.0,11333.0,10084.0,34271.0,85597.0,136778.0,146246.0,141232.0,141808.0,154169.0,116629.0,67099.0,18168.0,4589.0,12733.0,23349.0,61087.0,103738.0,142291.0,129154.0,119837.0,121876.0,109023.0,124991.0,29705.0,45.5278195427535,-73.6031121673584,Saint-Laurent-Bellechasse
100017523,,,,,,,,,,,,,,,,,,,,,,,,,,,,,,,,,,,,,,,,,,,,,,,,,,,,,,,,,,,,,,,,,,,,,,,,,,,,,,,,48996.0,12272.0,8231.0,1986.0,1182.0,5617.0,5498.0,7110.0,12027.0,29123.0,41848.0,48362.0,46001.0,44147.0,27005.0,15900.0,5326.0,24525.0,18870.0,5781.0,16417.0,27442.0,29030.0,30029.0,29950.0,35154.0,26038.0,13359.0,2452.0,158.0,330.0,2975.0,9523.0,22275.0,29868.0,26514.0,,,,,,45.5193951037592,-73.5886631073951,Saint-Urbain
100053055,,,,,,,,,,,,,,,,,,,,,,,,,,,,,,,,,,,,,,,,,,,,,,,,,,,,,,,,,,,,,,,,,,,,,,,,,,,,,,,880.0,13835.0,10204.0,6273.0,1655.0,899.0,726.0,688.0,1837.0,4364.0,12570.0,16183.0,16799.0,645.0,,2463.0,5025.0,1637.0,896.0,849.0,3217.0,6869.0,13671.0,14130.0,13333.0,6897.0,5238.0,,,,170.0,437.0,1282.0,4658.0,8963.0,11428.0,12625.0,12277.0,10504.0,4384.0,2608.0,679.0,45.511742476289925,-73.67253108202766,Sainte-Croix - Du Collège Sainte-Croix
100053210,,,,,,,,,,,,,,,,,,,,,,,,,,,,,,,,,,,,,,,,,,,,,,,,,,,,,,,,,,,,,,,,,,,,,,,,,,,,,,46226.0,223594.0,12116.0,115501.0,89934.0,28828.0,12347.0,789.0,800.0,2625.0,9824.0,20579.0,21823.0,20844.0,17616.0,13882.0,9499.0,5650.0,1515.0,1104.0,1000.0,4642.0,12047.0,18123.0,18051.0,18060.0,17643.0,15209.0,10124.0,5030.0,1380.0,868.0,747.0,2191.0,6917.0,13348.0,17319.0,18328.0,16008.0,13134.0,9928.0,5282.0,1616.0,45.595537645041134,-73.52043545138532,Souligny - Saint-Émile
100017441,,,,,,,,,,,,,,,,,,,,,,,,,,,,,,,,,,,,,,,,,,,,,,,,,,,,,,,,,,,,,,,,,,,,,,,,,,,,,,,668.0,103253.0,10543.0,7412.0,2502.0,1179.0,11353.0,9691.0,9838.0,10671.0,26025.0,38869.0,43558.0,41024.0,40080.0,21240.0,14925.0,4636.0,2689.0,2311.0,7621.0,19283.0,34272.0,39416.0,42067.0,45329.0,64208.0,50485.0,29108.0,6226.0,2440.0,3578.0,8528.0,26101.0,54479.0,73890.0,72051.0,73451.0,81953.0,68415.0,38374.0,9794.0,45.506134,-73.57587,University - Milton
100053059,,,,,,,,,,,,,,,,,,,,,,,,,,,,,,,,,,,,,,,,,,,,,,,,,,,,,,,,,,,,,,,,,,,,,,,,,1374.0,1454.0,2330.0,6980.0,17572.0,20804.0,51300.0,13090.0,19476.0,14037.0,4231.0,2078.0,422.0,434.0,1741.0,3851.0,8400.0,11379.0,12273.0,11501.0,9751.0,6708.0,4991.0,1924.0,314.0,446.0,2482.0,6516.0,10514.0,11306.0,11182.0,11368.0,10773.0,7837.0,4699.0,1206.0,274.0,555.0,1224.0,1383.0,923.0,1525.0,1409.0,1397.0,1371.0,1037.0,931.0,804.0,45.54684413712084,-73.54238787658998,Valois - la Fontaine
100047030,,,,,,,,,,,,,,,,,,,,,,,,,,,,,,,,,,,,,,,,,,,,,,,,,,,,,,,,,,,,,,,,,,,,,,,,,,,,,,,,22543.0,,,,,1694.0,1563.0,1763.0,1747.0,3452.0,5738.0,7481.0,7388.0,5904.0,3785.0,2446.0,899.0,650.0,667.0,1560.0,4155.0,8962.0,9948.0,10903.0,11812.0,12004.0,8707.0,4757.0,1372.0,621.0,647.0,1174.0,4878.0,10079.0,14912.0,8414.0,1575.0,1068.0,835.0,797.0,1200.0,45.50600884799096,-73.55960264511492,Viger - Saint-Urbain
100057052,,,,,,,,,,,,,,,,,,,,,,,,,,,,,,,,,,,,,,,,,,,,,,,,,,,,,,,,,,,,,,,,,,,,,,,,,,,,,,,,,,,,,1350.0,1259.0,3158.0,8114.0,22675.0,28555.0,25961.0,15650.0,12454.0,8802.0,5489.0,1649.0,89.0,,2399.0,5095.0,12298.0,10580.0,5954.0,14832.0,15040.0,4616.0,5749.0,1180.0,222.0,668.0,2271.0,6769.0,12549.0,19069.0,22580.0,14964.0,6630.0,12785.0,7186.0,195.0,45.47388790233083,-73.56183075238538,Wellington - Charlevoix
100053209,,,,,,,,,,,,,,,,,,,,,,,,,,,,,,,,,,,,,,,,,,,,,,,,,,,,,,,,,,,,,,,,,,,,,,,,,,,,,,,,,,,,,,,,,42601.0,50599.0,48813.0,49238.0,44914.0,41449.0,17897.0,5723.0,12999.0,11521.0,27187.0,40063.0,50915.0,45073.0,37382.0,29948.0,23576.0,12453.0,4172.0,1597.0,1185.0,1162.0,3297.0,12010.0,20070.0,26695.0,26495.0,24944.0,19038.0,11315.0,4232.0,996.0,45.50861581661045,-73.59116351638738,Camillien-Houde 1
100054241,,,,,,,,,,,,,,,,,,,,,,,,,,,,,,,,,,,,,,,,,,,,,,,,,,,,,,,,,,,,,,,,,,,,,,,,,,,,,,,,,,,,,,,,,,,,,,686.0,3000.0,495.0,221.0,136.0,804.0,2851.0,4891.0,1666.0,5858.0,6565.0,3816.0,2502.0,1640.0,248.0,123.0,139.0,458.0,2378.0,4296.0,5656.0,8122.0,6118.0,5082.0,4324.0,2216.0,665.0,45.49983514414373,-73.55604979610504,McGill - William
100054585,,,,,,,,,,,,,,,,,,,,,,,,,,,,,,,,,,,,,,,,,,,,,,,,,,,,,,,,,,,,,,,,,,,,,,,,,,,,,,,,,,,,,,,,,100968.0,137270.0,145550.0,147999.0,141222.0,145684.0,97511.0,66976.0,130842.0,86312.0,44360.0,,,10007.0,43639.0,4095.0,32258.0,36183.0,13752.0,938.0,540.0,506.0,1479.0,6805.0,9413.0,12608.0,12919.0,11216.0,8884.0,6639.0,2825.0,710.0,45.50160317511961,-73.59793406758837,Remembrance
300014916,,,,,,,,,,,,,,,,,,,,,,,,,,,,,,,,,,,,,,,,,,,,,,,,,,,,,,,,,,,,,,,,,,,,,,,,,,,,,,,,,,,,,,,,,,,,,,,,1040.0,5941.0,5347.0,14381.0,32876.0,52529.0,57057.0,55189.0,53791.0,56685.0,42489.0,23952.0,7203.0,4256.0,4662.0,10206.0,25761.0,48015.0,59927.0,59026.0,56629.0,54085.0,46396.0,26021.0,9319.0,45.55546272716089,-73.58104526996614,REV Bellechasse - 13ème
300014994,,,,,,,,,,,,,,,,,,,,,,,,,,,,,,,,,,,,,,,,,,,,,,,,,,,,,,,,,,,,,,,,,,,,,,,,,,,,,,,,,,,,,,,,,,,,,,,,,1546.0,1682.0,5978.0,16312.0,27803.0,28616.0,28919.0,25692.0,25660.0,16334.0,9205.0,2700.0,1623.0,1891.0,3980.0,12064.0,22253.0,29706.0,31181.0,28955.0,26469.0,20419.0,10504.0,3468.0,45.55089408852223,-73.65644216602959,REV Berri-Sauvé dir sud
300014993,,,,,,,,,,,,,,,,,,,,,,,,,,,,,,,,,,,,,,,,,,,,,,,,,,,,,,,,,,,,,,,,,,,,,,,,,,,,,,,,,,,,,,,,,,,,,,,,,1930.0,2006.0,7425.0,20202.0,34086.0,35074.0,35452.0,33506.0,34590.0,22890.0,11643.0,4129.0,1643.0,2124.0,4649.0,14501.0,27881.0,35284.0,37824.0,35478.0,32584.0,25130.0,13153.0,4259.0,45.551458406258135,-73.65503430293758,REV Lajeunesse-Sauvé dir nord
300014986,,,,,,,,,,,,,,,,,,,,,,,,,,,,,,,,,,,,,,,,,,,,,,,,,,,,,,,,,,,,,,,,,,,,,,,,,,,,,,,,,,,,,,,,,,,,,,,,1206.0,6590.0,6098.0,14277.0,33233.0,62952.0,72809.0,78452.0,76942.0,83643.0,59636.0,33275.0,9433.0,4817.0,6260.0,12841.0,36534.0,66718.0,88664.0,95021.0,89372.0,84283.0,67870.0,38393.0,12926.0,45.53052686785812,-73.59711706638338,REV St-Denis-Carrières dir nord
300014985,,,,,,,,,,,,,,,,,,,,,,,,,,,,,,,,,,,,,,,,,,,,,,,,,,,,,,,,,,,,,,,,,,,,,,,,,,,,,,,,,,,,,,,,,,,,,,,,1224.0,6961.0,6409.0,15819.0,37590.0,68866.0,80001.0,85976.0,85345.0,91129.0,64707.0,35906.0,10384.0,5007.0,6603.0,13976.0,41070.0,74590.0,99065.0,106642.0,101924.0,93657.0,75250.0,42126.0,13417.0,45.53027132795617,-73.59696149826051,REV St-Denis-Carrières dir sud
300014995,,,,,,,,,,,,,,,,,,,,,,,,,,,,,,,,,,,,,,,,,,,,,,,,,,,,,,,,,,,,,,,,,,,,,,,,,,,,,,,,,,,,,,,,,,,,,,,,694.0,3982.0,3691.0,12620.0,31022.0,52660.0,62049.0,66632.0,63333.0,69752.0,51851.0,30754.0,9283.0,4372.0,6037.0,11438.0,30577.0,55718.0,76674.0,85637.0,80458.0,74116.0,58661.0,29514.0,9710.0,45.52085687975788,-73.57602953910829,REV St-Denis-Duluth dir nord
300014996,,,,,,,,,,,,,,,,,,,,,,,,,,,,,,,,,,,,,,,,,,,,,,,,,,,,,,,,,,,,,,,,,,,,,,,,,,,,,,,,,,,,,,,,,,,,,,,,805.0,5345.0,5126.0,12722.0,29847.0,53644.0,64225.0,69256.0,68200.0,75333.0,52470.0,29418.0,8736.0,4274.0,5692.0,11396.0,32779.0,60972.0,82059.0,92507.0,84219.0,80117.0,63233.0,35904.0,11808.0,45.52162362428968,-73.57789635658266,REV St-Denis-Rachel dir sud
300020478,,,,,,,,,,,,,,,,,,,,,,,,,,,,,,,,,,,,,,,,,,,,,,,,,,,,,,,,,,,,,,,,,,,,,,,,,,,,,,,,,,,,,,,,,,,,,,,,,,,,,,,,,20250.0,40027.0,22530.0,6009.0,2543.0,3671.0,8308.0,23689.0,44652.0,58182.0,62182.0,59439.0,56967.0,44972.0,24883.0,7637.0,45.486899135943446,-73.58942408458202,Eco-Display - Maisonneuve and Greene
